{
  "routes": {
    "1": {
      "name": "1조: GC직행 + 남하해안",
      "color": "#e74c3c",
      "total_km": 2375,
      "score": 54.7,
      "days": [
        {
          "day": 1,
          "date": "5/24",
          "label": "시드니→골드코스트 (882km)",
          "day_km": 865,
          "stops": [
            {
              "name": "시드니공항",
              "lng": 151.1772,
              "lat": -33.9461,
              "type": "start",
              "distance_km": 0
            },
            {
              "name": "헤더브레이",
              "lng": 151.7333,
              "lat": -32.7667,
              "type": "waypoint",
              "distance_km": 176
            },
            {
              "name": "포트맥쿼리",
              "lng": 152.9089,
              "lat": -31.4333,
              "type": "waypoint",
              "distance_km": 220
            },
            {
              "name": "울굴가",
              "lng": 153.2333,
              "lat": -30.1167,
              "type": "waypoint",
              "distance_km": 180
            },
            {
              "name": "골드코스트",
              "lng": 153.43,
              "lat": -28.0023,
              "type": "stay",
              "distance_km": 289
            }
          ]
        },
        {
          "day": 2,
          "date": "5/25",
          "label": "골드코스트 풀데이 + 반딧불이",
          "day_km": 116,
          "stops": [
            {
              "name": "골드코스트",
              "lng": 153.43,
              "lat": -28.0023,
              "type": "start",
              "distance_km": 0
            },
            {
              "name": "버레이 헤드 국립공원",
              "lng": 153.4591743,
              "lat": -28.0918206,
              "type": "attraction",
              "grade": "A",
              "distance_km": 12
            },
            {
              "name": "스프링브룩 Natural Bridge",
              "lng": 153.243,
              "lat": -28.231,
              "type": "attraction",
              "distance_km": 55
            },
            {
              "name": "골드코스트",
              "lng": 153.43,
              "lat": -28.0023,
              "type": "stay",
              "distance_km": 49
            }
          ]
        },
        {
          "day": 3,
          "date": "5/26",
          "label": "골드코스트→바이런베이→콥스하버",
          "day_km": 344,
          "stops": [
            {
              "name": "골드코스트",
              "lng": 153.43,
              "lat": -28.0023,
              "type": "start",
              "distance_km": 0
            },
            {
              "name": "케이프 바이런 (바이런베이 등대)",
              "lng": 153.6361451,
              "lat": -28.6383938,
              "type": "attraction",
              "grade": "S",
              "distance_km": 97
            },
            {
              "name": "케이프 바이런 워킹 트랙",
              "lng": 153.6360211,
              "lat": -28.6349677,
              "type": "attraction",
              "grade": "A",
              "distance_km": 2
            },
            {
              "name": "바이런베이 타운",
              "lng": 153.615,
              "lat": -28.647,
              "type": "waypoint",
              "distance_km": 4
            },
            {
              "name": "룩앳미나우 헤드랜드",
              "lng": 153.1866875,
              "lat": -30.1756875,
              "type": "attraction",
              "grade": "S",
              "distance_km": 216
            },
            {
              "name": "머튼버드 아일랜드",
              "lng": 153.1515706,
              "lat": -30.3053949,
              "type": "attraction",
              "grade": "A",
              "distance_km": 21
            },
            {
              "name": "콥스하버",
              "lng": 153.114,
              "lat": -30.296,
              "type": "stay",
              "distance_km": 4
            }
          ]
        },
        {
          "day": 4,
          "date": "5/27",
          "label": "Waterfall Way: 콥스→도리고→포트맥쿼리",
          "day_km": 348,
          "stops": [
            {
              "name": "콥스하버",
              "lng": 153.114,
              "lat": -30.296,
              "type": "start",
              "distance_km": 0
            },
            {
              "name": "벨링겐 마을",
              "lng": 152.9,
              "lat": -30.45,
              "type": "waypoint",
              "distance_km": 36
            },
            {
              "name": "포레스트 스카이 피어",
              "lng": 153.1095289,
              "lat": -30.2664777,
              "type": "attraction",
              "grade": "A",
              "distance_km": 46
            },
            {
              "name": "크리스탈 샤워 폭포",
              "lng": 152.7297825,
              "lat": -30.3805276,
              "type": "attraction",
              "grade": "A",
              "distance_km": 70
            },
            {
              "name": "댕거 폭포",
              "lng": 152.7143427,
              "lat": -30.3233022,
              "type": "attraction",
              "grade": "A",
              "distance_km": 7
            },
            {
              "name": "태킹 포인트 등대",
              "lng": 152.9373573,
              "lat": -31.4755149,
              "type": "attraction",
              "grade": "A",
              "distance_km": 181
            },
            {
              "name": "포트맥쿼리 해안 산책로",
              "lng": 152.9068125,
              "lat": -31.4284375,
              "type": "attraction",
              "grade": "B",
              "distance_km": 7
            },
            {
              "name": "포트맥쿼리",
              "lng": 152.909,
              "lat": -31.433,
              "type": "stay",
              "distance_km": 1
            }
          ]
        },
        {
          "day": 5,
          "date": "5/28",
          "label": "포트맥쿼리→포트스테판스→뉴캐슬",
          "day_km": 332,
          "stops": [
            {
              "name": "포트맥쿼리",
              "lng": 152.909,
              "lat": -31.433,
              "type": "start",
              "distance_km": 0
            },
            {
              "name": "스톡턴 사막 (샌드보딩)",
              "lng": 152.083,
              "lat": -32.783,
              "type": "attraction",
              "distance_km": 242
            },
            {
              "name": "토마리 헤드",
              "lng": 152.1872376,
              "lat": -32.7168327,
              "type": "attraction",
              "grade": "A",
              "distance_km": 16
            },
            {
              "name": "포트 스테판스 캥거루 인카운터스",
              "lng": 152.1460255,
              "lat": -32.7244378,
              "type": "attraction",
              "grade": "B",
              "distance_km": 4
            },
            {
              "name": "뉴캐슬 메모리얼 워크",
              "lng": 151.7948,
              "lat": -32.9283,
              "type": "attraction",
              "grade": "S",
              "distance_km": 70
            },
            {
              "name": "뉴캐슬",
              "lng": 151.7948,
              "lat": -32.9283,
              "type": "stay",
              "distance_km": 0
            }
          ]
        },
        {
          "day": 6,
          "date": "5/29",
          "label": "뉴캐슬→그랜드퍼시픽→시드니공항",
          "day_km": 370,
          "stops": [
            {
              "name": "뉴캐슬",
              "lng": 151.7948,
              "lat": -32.9283,
              "type": "start",
              "distance_km": 0
            },
            {
              "name": "시 클리프 브릿지",
              "lng": 150.9658,
              "lat": -34.2527,
              "type": "attraction",
              "grade": "A",
              "distance_km": 280
            },
            {
              "name": "그랜드 퍼시픽 드라이브",
              "lng": 150.9200,
              "lat": -34.2100,
              "type": "attraction",
              "grade": "S",
              "distance_km": 10
            },
            {
              "name": "시드니공항",
              "lng": 151.1772,
              "lat": -33.9461,
              "type": "end",
              "distance_km": 80
            }
          ]
        }
      ]
    },
    "2": {
      "name": "2조: 남쪽해안 + 블루마운틴",
      "color": "#3498db",
      "total_km": 735,
      "score": 77.3,
      "days": [
        {
          "day": 1,
          "date": "5/24",
          "label": "시드니→그랜드퍼시픽→키아마",
          "day_km": 117,
          "stops": [
            {
              "name": "시드니공항",
              "lng": 151.1772,
              "lat": -33.9461,
              "type": "start",
              "distance_km": 0
            },
            {
              "name": "스탠웰 탑스 전망대",
              "lng": 150.9974825,
              "lat": -34.2237322,
              "type": "attraction",
              "grade": "A",
              "distance_km": 44
            },
            {
              "name": "그랜드 퍼시픽 드라이브",
              "lng": 150.9961037,
              "lat": -34.224236,
              "type": "attraction",
              "grade": "S",
              "distance_km": 0
            },
            {
              "name": "시 클리프 브릿지",
              "lng": 150.9733285,
              "lat": -34.2544902,
              "type": "attraction",
              "grade": "A",
              "distance_km": 6
            },
            {
              "name": "플래그스태프 포인트 등대",
              "lng": 150.90973,
              "lat": -34.4218855,
              "type": "attraction",
              "grade": "B",
              "distance_km": 23
            },
            {
              "name": "봄보 헤드랜드 채석장",
              "lng": 150.8624175,
              "lat": -34.6514592,
              "type": "attraction",
              "grade": "A",
              "distance_km": 33
            },
            {
              "name": "키아마 블로우홀",
              "lng": 150.8658668,
              "lat": -34.6713444,
              "type": "attraction",
              "grade": "A",
              "distance_km": 4
            },
            {
              "name": "리틀 블로우홀",
              "lng": 150.8588994,
              "lat": -34.686801,
              "type": "attraction",
              "grade": "B",
              "distance_km": 4
            },
            {
              "name": "키아마",
              "lng": 150.853,
              "lat": -34.673,
              "type": "stay",
              "distance_km": 3
            }
          ]
        },
        {
          "day": 2,
          "date": "5/25",
          "label": "키아마→서던하이랜드→블루마운틴",
          "day_km": 246,
          "stops": [
            {
              "name": "키아마",
              "lng": 150.853,
              "lat": -34.673,
              "type": "start",
              "distance_km": 0
            },
            {
              "name": "피츠로이 폭포",
              "lng": 150.483068,
              "lat": -34.6469906,
              "type": "attraction",
              "grade": "A",
              "distance_km": 56
            },
            {
              "name": "보랄(Bowral)",
              "lng": 150.418,
              "lat": -34.478,
              "type": "waypoint",
              "distance_km": 23
            },
            {
              "name": "에코 포인트 (쓰리 시스터스)",
              "lng": 150.3120446,
              "lat": -33.7325833,
              "type": "attraction",
              "grade": "A",
              "distance_km": 163
            },
            {
              "name": "쓰리 시스터스",
              "lng": 150.314841,
              "lat": -33.7353228,
              "type": "attraction",
              "grade": "A",
              "distance_km": 0
            },
            {
              "name": "카툼바 폭포",
              "lng": 150.30431,
              "lat": -33.7276912,
              "type": "attraction",
              "grade": "S",
              "distance_km": 2
            },
            {
              "name": "카툼바",
              "lng": 150.312,
              "lat": -33.714,
              "type": "stay",
              "distance_km": 2
            }
          ]
        },
        {
          "day": 3,
          "date": "5/26",
          "label": "블루마운틴 서쪽 (핵심 트레킹)",
          "day_km": 69,
          "stops": [
            {
              "name": "카툼바",
              "lng": 150.312,
              "lat": -33.714,
              "type": "start",
              "distance_km": 0
            },
            {
              "name": "고벳츠 리프 전망대",
              "lng": 150.3115081,
              "lat": -33.628006,
              "type": "attraction",
              "grade": "A",
              "distance_km": 14
            },
            {
              "name": "그랜드 캐니언 워킹 트랙",
              "lng": 150.3214159,
              "lat": -33.649376,
              "type": "attraction",
              "grade": "S",
              "distance_km": 8
            },
            {
              "name": "서블라임 포인트 전망대",
              "lng": 150.3431177,
              "lat": -33.7293913,
              "type": "attraction",
              "grade": "A",
              "distance_km": 18
            },
            {
              "name": "웬트워스 폴스 전망대",
              "lng": 150.3719979,
              "lat": -33.7260154,
              "type": "attraction",
              "grade": "A",
              "distance_km": 8
            },
            {
              "name": "링컨스 록",
              "lng": 150.372104,
              "lat": -33.7401395,
              "type": "attraction",
              "grade": "B",
              "distance_km": 7
            },
            {
              "name": "엠프레스 폭포",
              "lng": 150.359019,
              "lat": -33.7204714,
              "type": "attraction",
              "grade": "B",
              "distance_km": 7
            },
            {
              "name": "카툼바",
              "lng": 150.312,
              "lat": -33.714,
              "type": "stay",
              "distance_km": 7
            }
          ]
        },
        {
          "day": 4,
          "date": "5/27",
          "label": "블루마운틴 마무리→시드니",
          "day_km": 211,
          "stops": [
            {
              "name": "카툼바",
              "lng": 150.312,
              "lat": -33.714,
              "type": "start",
              "distance_km": 0
            },
            {
              "name": "하산스 월즈 전망대",
              "lng": 150.1511903,
              "lat": -33.5152831,
              "type": "attraction",
              "grade": "B",
              "distance_km": 39
            },
            {
              "name": "시닉 레일웨이",
              "lng": 150.3014253,
              "lat": -33.7291386,
              "type": "attraction",
              "grade": "B",
              "distance_km": 41
            },
            {
              "name": "갭 공원 (더 갭)",
              "lng": 151.285666,
              "lat": -33.846274,
              "type": "attraction",
              "grade": "A",
              "distance_km": 115
            },
            {
              "name": "다이아몬드 베이 보호지역",
              "lng": 151.2817776,
              "lat": -33.8615097,
              "type": "attraction",
              "grade": "B",
              "distance_km": 2
            },
            {
              "name": "본다이 투 브론테",
              "lng": 151.2746868,
              "lat": -33.8960263,
              "type": "attraction",
              "grade": "B",
              "distance_km": 5
            },
            {
              "name": "시드니 시내",
              "lng": 151.209,
              "lat": -33.868,
              "type": "stay",
              "distance_km": 9
            }
          ]
        },
        {
          "day": 5,
          "date": "5/28",
          "label": "시드니 차량 관광",
          "day_km": 79,
          "stops": [
            {
              "name": "시드니 시내",
              "lng": 151.209,
              "lat": -33.868,
              "type": "start",
              "distance_km": 0
            },
            {
              "name": "쿠링가이 체이스 국립공원",
              "lng": 151.224358,
              "lat": -33.6272215,
              "type": "attraction",
              "grade": "B",
              "distance_km": 39
            },
            {
              "name": "바랑가루 보호지역",
              "lng": 151.201206,
              "lat": -33.857208,
              "type": "attraction",
              "grade": "B",
              "distance_km": 38
            },
            {
              "name": "시드니 시내",
              "lng": 151.209,
              "lat": -33.868,
              "type": "stay",
              "distance_km": 2
            }
          ]
        },
        {
          "day": 6,
          "date": "5/29",
          "label": "렌터카 반납 + 시드니 도보",
          "day_km": 13,
          "stops": [
            {
              "name": "시드니 시내",
              "lng": 151.209,
              "lat": -33.868,
              "type": "start",
              "distance_km": 0
            },
            {
              "name": "시드니공항 (반납)",
              "lng": 151.1772,
              "lat": -33.9461,
              "type": "end",
              "distance_km": 13
            }
          ]
        }
      ]
    },
    "3": {
      "name": "3조: 해안+내륙 폭포 루프",
      "color": "#2ecc71",
      "total_km": 2423,
      "score": 58.8,
      "days": [
        {
          "day": 1,
          "date": "5/24",
          "label": "시드니→골드코스트 (882km)",
          "day_km": 865,
          "stops": [
            {
              "name": "시드니공항",
              "lng": 151.1772,
              "lat": -33.9461,
              "type": "start",
              "distance_km": 0
            },
            {
              "name": "헤더브레이",
              "lng": 151.7333,
              "lat": -32.7667,
              "type": "waypoint",
              "distance_km": 176
            },
            {
              "name": "포트맥쿼리",
              "lng": 152.9089,
              "lat": -31.4333,
              "type": "waypoint",
              "distance_km": 220
            },
            {
              "name": "울굴가",
              "lng": 153.2333,
              "lat": -30.1167,
              "type": "waypoint",
              "distance_km": 180
            },
            {
              "name": "골드코스트",
              "lng": 153.43,
              "lat": -28.0023,
              "type": "stay",
              "distance_km": 289
            }
          ]
        },
        {
          "day": 2,
          "date": "5/25",
          "label": "골드코스트 종일 + 반딧불이",
          "day_km": 116,
          "stops": [
            {
              "name": "골드코스트",
              "lng": 153.43,
              "lat": -28.0023,
              "type": "start",
              "distance_km": 0
            },
            {
              "name": "버레이 헤드 국립공원",
              "lng": 153.4591743,
              "lat": -28.0918206,
              "type": "attraction",
              "grade": "A",
              "distance_km": 12
            },
            {
              "name": "스프링브룩 Natural Bridge",
              "lng": 153.243,
              "lat": -28.231,
              "type": "attraction",
              "distance_km": 55
            },
            {
              "name": "골드코스트",
              "lng": 153.43,
              "lat": -28.0023,
              "type": "stay",
              "distance_km": 49
            }
          ]
        },
        {
          "day": 3,
          "date": "5/26",
          "label": "골드코스트→바이런베이→콥스하버",
          "day_km": 344,
          "stops": [
            {
              "name": "골드코스트",
              "lng": 153.43,
              "lat": -28.0023,
              "type": "start",
              "distance_km": 0
            },
            {
              "name": "케이프 바이런 (바이런베이 등대)",
              "lng": 153.6361451,
              "lat": -28.6383938,
              "type": "attraction",
              "grade": "S",
              "distance_km": 97
            },
            {
              "name": "케이프 바이런 워킹 트랙",
              "lng": 153.6360211,
              "lat": -28.6349677,
              "type": "attraction",
              "grade": "A",
              "distance_km": 2
            },
            {
              "name": "바이런베이 타운",
              "lng": 153.615,
              "lat": -28.647,
              "type": "waypoint",
              "distance_km": 4
            },
            {
              "name": "룩앳미나우 헤드랜드",
              "lng": 153.1866875,
              "lat": -30.1756875,
              "type": "attraction",
              "grade": "S",
              "distance_km": 216
            },
            {
              "name": "머튼버드 아일랜드",
              "lng": 153.1515706,
              "lat": -30.3053949,
              "type": "attraction",
              "grade": "A",
              "distance_km": 21
            },
            {
              "name": "콥스하버",
              "lng": 153.114,
              "lat": -30.296,
              "type": "stay",
              "distance_km": 4
            }
          ]
        },
        {
          "day": 4,
          "date": "5/27",
          "label": "Waterfall Way: 콥스→도리고→포트맥쿼리",
          "day_km": 347,
          "stops": [
            {
              "name": "콥스하버",
              "lng": 153.114,
              "lat": -30.296,
              "type": "start",
              "distance_km": 0
            },
            {
              "name": "벨링겐 마을",
              "lng": 152.9,
              "lat": -30.45,
              "type": "waypoint",
              "distance_km": 36
            },
            {
              "name": "포레스트 스카이 피어",
              "lng": 153.1095289,
              "lat": -30.2664777,
              "type": "attraction",
              "grade": "A",
              "distance_km": 46
            },
            {
              "name": "크리스탈 샤워 폭포",
              "lng": 152.7297825,
              "lat": -30.3805276,
              "type": "attraction",
              "grade": "A",
              "distance_km": 70
            },
            {
              "name": "댕거 폭포",
              "lng": 152.7143427,
              "lat": -30.3233022,
              "type": "attraction",
              "grade": "A",
              "distance_km": 7
            },
            {
              "name": "태킹 포인트 등대",
              "lng": 152.9373573,
              "lat": -31.4755149,
              "type": "attraction",
              "grade": "A",
              "distance_km": 181
            },
            {
              "name": "포트맥쿼리",
              "lng": 152.909,
              "lat": -31.433,
              "type": "stay",
              "distance_km": 7
            }
          ]
        },
        {
          "day": 5,
          "date": "5/28",
          "label": "포트맥쿼리→포트스테판스→뉴캐슬",
          "day_km": 381,
          "stops": [
            {
              "name": "포트맥쿼리",
              "lng": 152.909,
              "lat": -31.433,
              "type": "start",
              "distance_km": 0
            },
            {
              "name": "스톡턴 사막 (샌드보딩)",
              "lng": 152.083,
              "lat": -32.783,
              "type": "attraction",
              "distance_km": 242
            },
            {
              "name": "토마리 헤드",
              "lng": 152.1872376,
              "lat": -32.7168327,
              "type": "attraction",
              "grade": "A",
              "distance_km": 16
            },
            {
              "name": "뉴캐슬 메모리얼 워크",
              "lng": 151.777038,
              "lat": -32.9367076,
              "type": "attraction",
              "grade": "S",
              "distance_km": 64
            },
            {
              "name": "뉴캐슬",
              "lng": 151.7948,
              "lat": -32.9283,
              "type": "stay",
              "distance_km": 0
            }
          ]
        },
        {
          "day": 6,
          "date": "5/29",
          "label": "뉴캐슬→그랜드퍼시픽→시드니공항",
          "day_km": 370,
          "stops": [
            {
              "name": "뉴캐슬",
              "lng": 151.7948,
              "lat": -32.9283,
              "type": "start",
              "distance_km": 0
            },
            {
              "name": "시 클리프 브릿지",
              "lng": 150.9658,
              "lat": -34.2527,
              "type": "attraction",
              "grade": "A",
              "distance_km": 280
            },
            {
              "name": "그랜드 퍼시픽 드라이브",
              "lng": 150.9200,
              "lat": -34.2100,
              "type": "attraction",
              "grade": "S",
              "distance_km": 10
            },
            {
              "name": "시드니공항 (반납)",
              "lng": 151.1772,
              "lat": -33.9461,
              "type": "end",
              "distance_km": 80
            }
          ]
        }
      ]
    },
    "4": {
      "name": "4조: 오션앤마운틴 그랜드루프",
      "color": "#f1c40f",
      "total_km": 2517,
      "score": 69.7,
      "days": [
        {
          "day": 1,
          "date": "5/24",
          "label": "시드니→골드코스트 (882km)",
          "day_km": 862,
          "stops": [
            {
              "name": "시드니공항",
              "lng": 151.1772,
              "lat": -33.9461,
              "type": "start",
              "distance_km": 0
            },
            {
              "name": "헤더브레이",
              "lng": 151.7333,
              "lat": -32.7667,
              "type": "waypoint",
              "distance_km": 176
            },
            {
              "name": "포트맥쿼리",
              "lng": 152.9089,
              "lat": -31.4333,
              "type": "waypoint",
              "distance_km": 220
            },
            {
              "name": "콥스하버",
              "lng": 153.114,
              "lat": -30.296,
              "type": "waypoint",
              "distance_km": 154
            },
            {
              "name": "골드코스트",
              "lng": 153.43,
              "lat": -28.0023,
              "type": "stay",
              "distance_km": 312
            }
          ]
        },
        {
          "day": 2,
          "date": "5/25",
          "label": "GC→바이런→콥스하버",
          "day_km": 338,
          "stops": [
            {
              "name": "골드코스트",
              "lng": 153.43,
              "lat": -28.0023,
              "type": "start",
              "distance_km": 0
            },
            {
              "name": "버레이 헤드 국립공원",
              "lng": 153.4592,
              "lat": -28.0918,
              "type": "attraction",
              "grade": "A",
              "distance_km": 12
            },
            {
              "name": "케이프 바이런 (바이런베이 등대)",
              "lng": 153.6386,
              "lat": -28.6432,
              "type": "attraction",
              "grade": "S",
              "distance_km": 105
            },
            {
              "name": "룩앳미나우 헤드랜드",
              "lng": 153.1445,
              "lat": -30.3605,
              "type": "attraction",
              "grade": "S",
              "distance_km": 235
            },
            {
              "name": "콥스하버",
              "lng": 153.1136,
              "lat": -30.2963,
              "type": "stay",
              "distance_km": 10
            }
          ]
        },
        {
          "day": 3,
          "date": "5/26",
          "label": "콥스→도리고→포트맥쿼리",
          "day_km": 348,
          "stops": [
            {
              "name": "콥스하버",
              "lng": 153.114,
              "lat": -30.296,
              "type": "start",
              "distance_km": 0
            },
            {
              "name": "벨링겐 마을",
              "lng": 152.9,
              "lat": -30.45,
              "type": "waypoint",
              "distance_km": 36
            },
            {
              "name": "포레스트 스카이 피어",
              "lng": 153.1095289,
              "lat": -30.2664777,
              "type": "attraction",
              "grade": "A",
              "distance_km": 46
            },
            {
              "name": "크리스탈 샤워 폭포",
              "lng": 152.7297825,
              "lat": -30.3805276,
              "type": "attraction",
              "grade": "A",
              "distance_km": 70
            },
            {
              "name": "댕거 폭포",
              "lng": 152.7143427,
              "lat": -30.3233022,
              "type": "attraction",
              "grade": "A",
              "distance_km": 7
            },
            {
              "name": "태킹 포인트 등대",
              "lng": 152.9373573,
              "lat": -31.4755149,
              "type": "attraction",
              "grade": "A",
              "distance_km": 181
            },
            {
              "name": "포트맥쿼리",
              "lng": 152.909,
              "lat": -31.433,
              "type": "stay",
              "distance_km": 8
            }
          ]
        },
        {
          "day": 4,
          "date": "5/27",
          "label": "포트맥쿼리→포트스테판스",
          "day_km": 280,
          "stops": [
            {
              "name": "포트맥쿼리",
              "lng": 152.909,
              "lat": -31.433,
              "type": "start",
              "distance_km": 0
            },
            {
              "name": "스톡턴 사막 (샌드보딩)",
              "lng": 151.8630067,
              "lat": -32.8079018,
              "type": "attraction",
              "distance_km": 222
            },
            {
              "name": "토마리 헤드",
              "lng": 152.1872376,
              "lat": -32.7168327,
              "type": "attraction",
              "grade": "A",
              "distance_km": 36
            },
            {
              "name": "넬슨베이",
              "lng": 152.067,
              "lat": -32.717,
              "type": "stay",
              "distance_km": 22
            }
          ]
        },
        {
          "day": 5,
          "date": "5/28",
          "label": "포트스테판스→뉴캐슬→블루마운틴",
          "day_km": 328,
          "stops": [
            {
              "name": "넬슨베이",
              "lng": 152.067,
              "lat": -32.717,
              "type": "start",
              "distance_km": 0
            },
            {
              "name": "뉴캐슬 메모리얼 워크",
              "lng": 151.777038,
              "lat": -32.9367076,
              "type": "attraction",
              "grade": "S",
              "distance_km": 58
            },
            {
              "name": "카툼바 폭포",
              "lng": 150.30431,
              "lat": -33.727691199999995,
              "type": "attraction",
              "grade": "S",
              "distance_km": 200
            },
            {
              "name": "에코 포인트 (쓰리 시스터스)",
              "lng": 150.3120446,
              "lat": -33.7325833,
              "type": "attraction",
              "grade": "A",
              "distance_km": 2
            },
            {
              "name": "고벳츠 리프 전망대",
              "lng": 150.3115081,
              "lat": -33.628006,
              "type": "attraction",
              "grade": "A",
              "distance_km": 10
            },
            {
              "name": "블루마운틴 (카툼바)",
              "lng": 150.312,
              "lat": -33.714,
              "type": "stay",
              "distance_km": 0
            }
          ]
        },
        {
          "day": 6,
          "date": "5/29",
          "label": "블루마운틴→그랜드퍼시픽→시드니공항",
          "day_km": 361,
          "stops": [
            {
              "name": "카툼바",
              "lng": 150.312,
              "lat": -33.714,
              "type": "start",
              "distance_km": 0
            },
            {
              "name": "그랜드 캐니언 워킹 트랙",
              "lng": 150.3214159,
              "lat": -33.649376,
              "type": "attraction",
              "grade": "S",
              "distance_km": 15
            },
            {
              "name": "스탠웰 탑스 전망대",
              "lng": 150.9974825,
              "lat": -34.2237322,
              "type": "attraction",
              "grade": "A",
              "distance_km": 145
            },
            {
              "name": "그랜드 퍼시픽 드라이브",
              "lng": 150.9961037,
              "lat": -34.224236,
              "type": "attraction",
              "grade": "S",
              "distance_km": 0
            },
            {
              "name": "시 클리프 브릿지",
              "lng": 150.97332849999998,
              "lat": -34.2544902,
              "type": "attraction",
              "grade": "A",
              "distance_km": 6
            },
            {
              "name": "키아마 블로우홀",
              "lng": 150.8658668,
              "lat": -34.671344399999995,
              "type": "attraction",
              "grade": "A",
              "distance_km": 62
            },
            {
              "name": "시드니공항 (반납)",
              "lng": 151.1772,
              "lat": -33.9461,
              "type": "end",
              "distance_km": 113
            }
          ]
        }
      ]
    },
    "5": {
      "name": "5조: 풀 스윙 (개선)",
      "color": "#9b59b6",
      "total_km": 2185,
      "score": 68.3,
      "days": [
        {
          "day": 1,
          "date": "5/24",
          "label": "시드니→골드코스트 (882km)",
          "day_km": 862,
          "stops": [
            {
              "name": "시드니공항",
              "lng": 151.1772,
              "lat": -33.9461,
              "type": "start",
              "distance_km": 0
            },
            {
              "name": "헤더브레이",
              "lng": 151.7333,
              "lat": -32.7667,
              "type": "waypoint",
              "distance_km": 176
            },
            {
              "name": "포트맥쿼리",
              "lng": 152.9089,
              "lat": -31.4333,
              "type": "waypoint",
              "distance_km": 220
            },
            {
              "name": "콥스하버",
              "lng": 153.114,
              "lat": -30.296,
              "type": "waypoint",
              "distance_km": 154
            },
            {
              "name": "골드코스트",
              "lng": 153.43,
              "lat": -28.0023,
              "type": "stay",
              "distance_km": 312
            }
          ]
        },
        {
          "day": 2,
          "date": "5/25",
          "label": "골드코스트 + 반딧불이",
          "day_km": 129,
          "stops": [
            {
              "name": "골드코스트",
              "lng": 153.43,
              "lat": -28.0023,
              "type": "start",
              "distance_km": 0
            },
            {
              "name": "버레이 헤드 국립공원",
              "lng": 153.4591743,
              "lat": -28.0918206,
              "type": "attraction",
              "grade": "A",
              "distance_km": 12
            },
            {
              "name": "커럼빈 야생동물 보호구역",
              "lng": 153.476,
              "lat": -28.146,
              "type": "attraction",
              "distance_km": 9
            },
            {
              "name": "스프링브룩 반딧불이",
              "lng": 153.243,
              "lat": -28.231,
              "type": "attraction",
              "distance_km": 59
            },
            {
              "name": "골드코스트",
              "lng": 153.43,
              "lat": -28.0023,
              "type": "stay",
              "distance_km": 49
            }
          ]
        },
        {
          "day": 3,
          "date": "5/26",
          "label": "골드코스트→바이런베이→콥스하버",
          "day_km": 344,
          "stops": [
            {
              "name": "골드코스트",
              "lng": 153.43,
              "lat": -28.0023,
              "type": "start",
              "distance_km": 0
            },
            {
              "name": "케이프 바이런 (바이런베이 등대)",
              "lng": 153.6361451,
              "lat": -28.6383938,
              "type": "attraction",
              "grade": "S",
              "distance_km": 97
            },
            {
              "name": "케이프 바이런 워킹 트랙",
              "lng": 153.6360211,
              "lat": -28.634967699999997,
              "type": "attraction",
              "grade": "A",
              "distance_km": 2
            },
            {
              "name": "바이런베이 타운",
              "lng": 153.615,
              "lat": -28.647,
              "type": "waypoint",
              "distance_km": 4
            },
            {
              "name": "룩앳미나우 헤드랜드",
              "lng": 153.1866875,
              "lat": -30.1756875,
              "type": "attraction",
              "grade": "S",
              "distance_km": 216
            },
            {
              "name": "머튼버드 아일랜드",
              "lng": 153.15157059999999,
              "lat": -30.3053949,
              "type": "attraction",
              "grade": "A",
              "distance_km": 21
            },
            {
              "name": "콥스하버",
              "lng": 153.114,
              "lat": -30.296,
              "type": "stay",
              "distance_km": 4
            }
          ]
        },
        {
          "day": 4,
          "date": "5/27",
          "label": "Waterfall Way: 콥스→도리고→포트맥쿼리",
          "day_km": 348,
          "stops": [
            {
              "name": "콥스하버",
              "lng": 153.114,
              "lat": -30.296,
              "type": "start",
              "distance_km": 0
            },
            {
              "name": "벨링겐 마을",
              "lng": 152.9,
              "lat": -30.45,
              "type": "waypoint",
              "distance_km": 36
            },
            {
              "name": "포레스트 스카이 피어",
              "lng": 153.1095289,
              "lat": -30.2664777,
              "type": "attraction",
              "grade": "A",
              "distance_km": 46
            },
            {
              "name": "크리스탈 샤워 폭포",
              "lng": 152.7297825,
              "lat": -30.380527599999997,
              "type": "attraction",
              "grade": "A",
              "distance_km": 70
            },
            {
              "name": "댕거 폭포",
              "lng": 152.7143427,
              "lat": -30.323302199999997,
              "type": "attraction",
              "grade": "A",
              "distance_km": 7
            },
            {
              "name": "코알라 보존 병원 포트맥쿼리",
              "lng": 152.9206423,
              "lat": -31.4419743,
              "type": "attraction",
              "grade": "B",
              "distance_km": 177
            },
            {
              "name": "태킹 포인트 등대",
              "lng": 152.9373573,
              "lat": -31.4755149,
              "type": "attraction",
              "grade": "A",
              "distance_km": 5
            },
            {
              "name": "포트맥쿼리",
              "lng": 152.909,
              "lat": -31.433,
              "type": "stay",
              "distance_km": 7
            }
          ]
        },
        {
          "day": 5,
          "date": "5/28",
          "label": "포트맥쿼리→포트스테판스",
          "day_km": 272,
          "stops": [
            {
              "name": "포트맥쿼리",
              "lng": 152.909,
              "lat": -31.433,
              "type": "start",
              "distance_km": 0
            },
            {
              "name": "스톡턴 사막 (샌드보딩)",
              "lng": 151.8630067,
              "lat": -32.807901799999996,
              "type": "attraction",
              "distance_km": 222
            },
            {
              "name": "토마리 헤드",
              "lng": 152.1872376,
              "lat": -32.7168327,
              "type": "attraction",
              "grade": "A",
              "distance_km": 36
            },
            {
              "name": "넬슨베이",
              "lng": 152.067,
              "lat": -32.717,
              "type": "stay",
              "distance_km": 14
            }
          ]
        },
        {
          "day": 6,
          "date": "5/29",
          "label": "넬슨베이→시드니공항 반납",
          "day_km": 230,
          "stops": [
            {
              "name": "넬슨베이",
              "lng": 152.067,
              "lat": -32.717,
              "type": "start",
              "distance_km": 0
            },
            {
              "name": "뉴캐슬 메모리얼 워크",
              "lng": 151.777038,
              "lat": -32.9367076,
              "type": "attraction",
              "grade": "S",
              "distance_km": 58
            },
            {
              "name": "시드니공항 (반납)",
              "lng": 151.1772,
              "lat": -33.9461,
              "type": "end",
              "distance_km": 172
            }
          ]
        }
      ]
    },
    "6": {
      "name": "6조: 바이런직행 + 블루마운틴",
      "color": "#e67e22",
      "total_km": 2316,
      "score": 78.0,
      "days": [
        {
          "day": 1,
          "date": "5/24",
          "label": "시드니→바이런베이 (783km)",
          "day_km": 783,
          "stops": [
            {
              "name": "시드니공항",
              "lng": 151.1772,
              "lat": -33.9461,
              "type": "start",
              "distance_km": 0
            },
            {
              "name": "헤더브레이",
              "lng": 151.7333,
              "lat": -32.7667,
              "type": "waypoint",
              "distance_km": 176
            },
            {
              "name": "포트맥쿼리",
              "lng": 152.9089,
              "lat": -31.4333,
              "type": "waypoint",
              "distance_km": 220
            },
            {
              "name": "콥스하버",
              "lng": 153.114,
              "lat": -30.296,
              "type": "waypoint",
              "distance_km": 154
            },
            {
              "name": "바이런베이",
              "lng": 153.615,
              "lat": -28.647,
              "type": "stay",
              "distance_km": 233
            }
          ]
        },
        {
          "day": 2,
          "date": "5/25",
          "label": "바이런베이 일출 + 콥스하버",
          "day_km": 251,
          "stops": [
            {
              "name": "바이런베이",
              "lng": 153.615,
              "lat": -28.647,
              "type": "start",
              "distance_km": 0
            },
            {
              "name": "케이프 바이런 (바이런베이 등대)",
              "lng": 153.6361451,
              "lat": -28.6383938,
              "type": "attraction",
              "grade": "S",
              "distance_km": 4
            },
            {
              "name": "케이프 바이런 워킹 트랙",
              "lng": 153.6360211,
              "lat": -28.634967699999997,
              "type": "attraction",
              "grade": "A",
              "distance_km": 2
            },
            {
              "name": "바이런베이 타운",
              "lng": 153.615,
              "lat": -28.647,
              "type": "waypoint",
              "distance_km": 4
            },
            {
              "name": "룩앳미나우 헤드랜드",
              "lng": 153.1866875,
              "lat": -30.1756875,
              "type": "attraction",
              "grade": "S",
              "distance_km": 216
            },
            {
              "name": "머튼버드 아일랜드",
              "lng": 153.15157059999999,
              "lat": -30.3053949,
              "type": "attraction",
              "grade": "A",
              "distance_km": 21
            },
            {
              "name": "콥스하버",
              "lng": 153.114,
              "lat": -30.296,
              "type": "stay",
              "distance_km": 4
            }
          ]
        },
        {
          "day": 3,
          "date": "5/26",
          "label": "Waterfall Way: 콥스→도리고→포트맥쿼리",
          "day_km": 347,
          "stops": [
            {
              "name": "콥스하버",
              "lng": 153.114,
              "lat": -30.296,
              "type": "start",
              "distance_km": 0
            },
            {
              "name": "벨링겐 마을",
              "lng": 152.9,
              "lat": -30.45,
              "type": "waypoint",
              "distance_km": 36
            },
            {
              "name": "포레스트 스카이 피어",
              "lng": 153.1095289,
              "lat": -30.2664777,
              "type": "attraction",
              "grade": "A",
              "distance_km": 46
            },
            {
              "name": "크리스탈 샤워 폭포",
              "lng": 152.7297825,
              "lat": -30.380527599999997,
              "type": "attraction",
              "grade": "A",
              "distance_km": 70
            },
            {
              "name": "댕거 폭포",
              "lng": 152.7143427,
              "lat": -30.323302199999997,
              "type": "attraction",
              "grade": "A",
              "distance_km": 7
            },
            {
              "name": "포트맥쿼리 해안 산책로",
              "lng": 152.9068125,
              "lat": -31.428437499999998,
              "type": "attraction",
              "grade": "B",
              "distance_km": 174
            },
            {
              "name": "태킹 포인트 등대",
              "lng": 152.9373573,
              "lat": -31.4755149,
              "type": "attraction",
              "grade": "A",
              "distance_km": 7
            },
            {
              "name": "포트맥쿼리",
              "lng": 152.909,
              "lat": -31.433,
              "type": "stay",
              "distance_km": 7
            }
          ]
        },
        {
          "day": 4,
          "date": "5/27",
          "label": "포트맥쿼리→스톡턴사막→토마리헤드",
          "day_km": 272,
          "stops": [
            {
              "name": "포트맥쿼리",
              "lng": 152.909,
              "lat": -31.433,
              "type": "start",
              "distance_km": 0
            },
            {
              "name": "스톡턴 사막 (샌드보딩)",
              "lng": 151.8630067,
              "lat": -32.807901799999996,
              "type": "attraction",
              "distance_km": 222
            },
            {
              "name": "토마리 헤드",
              "lng": 152.1872376,
              "lat": -32.7168327,
              "type": "attraction",
              "grade": "A",
              "distance_km": 36
            },
            {
              "name": "넬슨베이",
              "lng": 152.067,
              "lat": -32.717,
              "type": "stay",
              "distance_km": 14
            }
          ]
        },
        {
          "day": 5,
          "date": "5/28",
          "label": "뉴캐슬→블루마운틴 (석양 골든아워)",
          "day_km": 324,
          "stops": [
            {
              "name": "넬슨베이",
              "lng": 152.067,
              "lat": -32.717,
              "type": "start",
              "distance_km": 0
            },
            {
              "name": "뉴캐슬 메모리얼 워크",
              "lng": 151.777038,
              "lat": -32.9367076,
              "type": "attraction",
              "grade": "S",
              "distance_km": 58
            },
            {
              "name": "보기 홀",
              "lng": 151.7816528,
              "lat": -32.9351306,
              "type": "attraction",
              "grade": "B",
              "distance_km": 1
            },
            {
              "name": "고벳츠 리프 전망대",
              "lng": 150.3115081,
              "lat": -33.628006,
              "type": "attraction",
              "grade": "A",
              "distance_km": 246
            },
            {
              "name": "카툼바 폭포",
              "lng": 150.30431,
              "lat": -33.727691199999995,
              "type": "attraction",
              "grade": "S",
              "distance_km": 16
            },
            {
              "name": "에코 포인트 (쓰리 시스터스)",
              "lng": 150.3120446,
              "lat": -33.7325833,
              "type": "attraction",
              "grade": "A",
              "distance_km": 1
            },
            {
              "name": "블루마운틴 (카툼바)",
              "lng": 150.312,
              "lat": -33.714,
              "type": "stay",
              "distance_km": 2
            }
          ]
        },
        {
          "day": 6,
          "date": "5/29",
          "label": "블루마운틴→그랜드퍼시픽→시드니공항",
          "day_km": 339,
          "stops": [
            {
              "name": "카툼바",
              "lng": 150.312,
              "lat": -33.714,
              "type": "start",
              "distance_km": 0
            },
            {
              "name": "그랜드 캐니언 워킹 트랙",
              "lng": 150.3214159,
              "lat": -33.649376,
              "type": "attraction",
              "grade": "S",
              "distance_km": 13
            },
            {
              "name": "그랜드 퍼시픽 드라이브",
              "lng": 150.9961037,
              "lat": -34.224236,
              "type": "attraction",
              "grade": "S",
              "distance_km": 144
            },
            {
              "name": "스탠웰 탑스 전망대",
              "lng": 150.9974825,
              "lat": -34.2237322,
              "type": "attraction",
              "grade": "A",
              "distance_km": 0
            },
            {
              "name": "시 클리프 브릿지",
              "lng": 150.97332849999998,
              "lat": -34.2544902,
              "type": "attraction",
              "grade": "A",
              "distance_km": 6
            },
            {
              "name": "봄보 헤드랜드 채석장",
              "lng": 150.8624175,
              "lat": -34.6514592,
              "type": "attraction",
              "grade": "A",
              "distance_km": 59
            },
            {
              "name": "키아마 블로우홀",
              "lng": 150.8658668,
              "lat": -34.671344399999995,
              "type": "attraction",
              "grade": "A",
              "distance_km": 4
            },
            {
              "name": "시드니공항 (반납)",
              "lng": 151.1772,
              "lat": -33.9461,
              "type": "end",
              "distance_km": 113
            }
          ]
        }
      ]
    },
    "7": {
      "name": "7조: 안전첫날 + S올클리어",
      "color": "#1abc9c",
      "total_km": 2331,
      "score": 59.5,
      "days": [
        {
          "day": 1,
          "date": "5/24",
          "label": "시드니→포트맥쿼리 (안전 첫날)",
          "day_km": 410,
          "stops": [
            {
              "name": "시드니공항",
              "lng": 151.1772,
              "lat": -33.9461,
              "type": "start",
              "distance_km": 0
            },
            {
              "name": "헤더브레이",
              "lng": 151.7333,
              "lat": -32.7667,
              "type": "waypoint",
              "distance_km": 176
            },
            {
              "name": "포트맥쿼리 해안 산책로",
              "lng": 152.9068125,
              "lat": -31.4284375,
              "type": "attraction",
              "distance_km": 220,
              "grade": "B"
            },
            {
              "name": "태킹 포인트 등대",
              "lng": 152.9373573,
              "lat": -31.4755149,
              "type": "attraction",
              "distance_km": 7,
              "grade": "A"
            },
            {
              "name": "포트맥쿼리",
              "lng": 152.9089,
              "lat": -31.4333,
              "type": "stay",
              "distance_km": 7
            }
          ]
        },
        {
          "day": 2,
          "date": "5/25",
          "label": "Waterfall Way: 포맥→도리고→콥스하버",
          "day_km": 370,
          "stops": [
            {
              "name": "포트맥쿼리",
              "lng": 152.9089,
              "lat": -31.4333,
              "type": "start",
              "distance_km": 0
            },
            {
              "name": "벨링겐 마을",
              "lng": 152.9,
              "lat": -30.45,
              "type": "waypoint",
              "distance_km": 143
            },
            {
              "name": "포레스트 스카이 피어",
              "lng": 153.1095289,
              "lat": -30.2664777,
              "type": "attraction",
              "distance_km": 46,
              "grade": "A"
            },
            {
              "name": "크리스탈 샤워 폭포",
              "lng": 152.7297825,
              "lat": -30.3805276,
              "type": "attraction",
              "distance_km": 70,
              "grade": "A"
            },
            {
              "name": "댕거 폭포",
              "lng": 152.7143427,
              "lat": -30.3233022,
              "type": "attraction",
              "distance_km": 7,
              "grade": "A"
            },
            {
              "name": "룩앳미나우 헤드랜드",
              "lng": 153.1866875,
              "lat": -30.1756875,
              "type": "attraction",
              "distance_km": 79,
              "grade": "S"
            },
            {
              "name": "머튼버드 아일랜드",
              "lng": 153.1515706,
              "lat": -30.3053949,
              "type": "attraction",
              "distance_km": 21,
              "grade": "A"
            },
            {
              "name": "콥스하버",
              "lng": 153.114,
              "lat": -30.296,
              "type": "stay",
              "distance_km": 4
            }
          ]
        },
        {
          "day": 3,
          "date": "5/26",
          "label": "콥스↔바이런베이 왕복",
          "day_km": 475,
          "stops": [
            {
              "name": "콥스하버",
              "lng": 153.114,
              "lat": -30.296,
              "type": "start",
              "distance_km": 0
            },
            {
              "name": "케이프 바이런 (바이런베이 등대)",
              "lng": 153.6361451,
              "lat": -28.6383938,
              "type": "attraction",
              "distance_km": 236,
              "grade": "S"
            },
            {
              "name": "케이프 바이런 워킹 트랙",
              "lng": 153.6360211,
              "lat": -28.6349677,
              "type": "attraction",
              "distance_km": 2,
              "grade": "A"
            },
            {
              "name": "바이런베이 타운",
              "lng": 153.615,
              "lat": -28.647,
              "type": "waypoint",
              "distance_km": 4
            },
            {
              "name": "콥스하버",
              "lng": 153.114,
              "lat": -30.296,
              "type": "stay",
              "distance_km": 233
            }
          ]
        },
        {
          "day": 4,
          "date": "5/27",
          "label": "콥스하버→포트스테판스",
          "day_km": 412,
          "stops": [
            {
              "name": "콥스하버",
              "lng": 153.114,
              "lat": -30.296,
              "type": "start",
              "distance_km": 0
            },
            {
              "name": "스톡턴 사막 (샌드보딩)",
              "lng": 152.083,
              "lat": -32.783,
              "type": "attraction",
              "distance_km": 382
            },
            {
              "name": "토마리 헤드",
              "lng": 152.1872376,
              "lat": -32.7168327,
              "type": "attraction",
              "distance_km": 16,
              "grade": "A"
            },
            {
              "name": "넬슨베이",
              "lng": 152.067,
              "lat": -32.717,
              "type": "stay",
              "distance_km": 14
            }
          ]
        },
        {
          "day": 5,
          "date": "5/28",
          "label": "뉴캐슬→블루마운틴 (석양 골든아워)",
          "day_km": 324,
          "stops": [
            {
              "name": "넬슨베이",
              "lng": 152.067,
              "lat": -32.717,
              "type": "start",
              "distance_km": 0
            },
            {
              "name": "뉴캐슬 메모리얼 워크",
              "lng": 151.777038,
              "lat": -32.9367076,
              "type": "attraction",
              "distance_km": 58,
              "grade": "S"
            },
            {
              "name": "보기 홀",
              "lng": 151.7816528,
              "lat": -32.9351306,
              "type": "attraction",
              "distance_km": 1,
              "grade": "B"
            },
            {
              "name": "고벳츠 리프 전망대",
              "lng": 150.3115081,
              "lat": -33.628006,
              "type": "attraction",
              "distance_km": 246,
              "grade": "A"
            },
            {
              "name": "카툼바 폭포",
              "lng": 150.30431,
              "lat": -33.7276912,
              "type": "attraction",
              "distance_km": 16,
              "grade": "S"
            },
            {
              "name": "에코 포인트 (쓰리 시스터스)",
              "lng": 150.3120446,
              "lat": -33.7325833,
              "type": "attraction",
              "distance_km": 1,
              "grade": "A"
            },
            {
              "name": "블루마운틴 (카툼바)",
              "lng": 150.312,
              "lat": -33.714,
              "type": "stay",
              "distance_km": 2
            }
          ]
        },
        {
          "day": 6,
          "date": "5/29",
          "label": "블루마운틴→그랜드퍼시픽→시드니공항",
          "day_km": 340,
          "stops": [
            {
              "name": "카툼바",
              "lng": 150.312,
              "lat": -33.714,
              "type": "start",
              "distance_km": 0
            },
            {
              "name": "그랜드 캐니언 워킹 트랙",
              "lng": 150.3214159,
              "lat": -33.649376,
              "type": "attraction",
              "distance_km": 13,
              "grade": "S"
            },
            {
              "name": "스탠웰 탑스 전망대",
              "lng": 150.9974825,
              "lat": -34.2237322,
              "type": "attraction",
              "distance_km": 145,
              "grade": "A"
            },
            {
              "name": "그랜드 퍼시픽 드라이브",
              "lng": 150.9961037,
              "lat": -34.224236,
              "type": "attraction",
              "distance_km": 0,
              "grade": "S"
            },
            {
              "name": "시 클리프 브릿지",
              "lng": 150.9733285,
              "lat": -34.2544902,
              "type": "attraction",
              "distance_km": 6,
              "grade": "A"
            },
            {
              "name": "봄보 헤드랜드 채석장",
              "lng": 150.8624175,
              "lat": -34.6514592,
              "type": "attraction",
              "distance_km": 59,
              "grade": "A"
            },
            {
              "name": "키아마 블로우홀",
              "lng": 150.8658668,
              "lat": -34.6713444,
              "type": "attraction",
              "distance_km": 4,
              "grade": "A"
            },
            {
              "name": "시드니공항 (반납)",
              "lng": 151.1772,
              "lat": -33.9461,
              "type": "end",
              "distance_km": 113
            }
          ]
        }
      ]
    },
    "8": {
      "name": "8조: 바이런 연박 감성 루트",
      "color": "#16a085",
      "total_km": 2264,
      "score": 73.0,
      "days": [
        {
          "day": 1,
          "date": "5/24",
          "label": "시드니→바이런베이 (783km)",
          "day_km": 783,
          "stops": [
            {
              "name": "시드니공항",
              "lng": 151.1772,
              "lat": -33.9461,
              "type": "start",
              "distance_km": 0
            },
            {
              "name": "헤더브레이",
              "lng": 151.7333,
              "lat": -32.7667,
              "type": "waypoint",
              "distance_km": 176
            },
            {
              "name": "포트맥쿼리",
              "lng": 152.9089,
              "lat": -31.4333,
              "type": "waypoint",
              "distance_km": 220
            },
            {
              "name": "콥스하버",
              "lng": 153.114,
              "lat": -30.296,
              "type": "waypoint",
              "distance_km": 154
            },
            {
              "name": "바이런베이",
              "lng": 153.615,
              "lat": -28.647,
              "type": "stay",
              "distance_km": 233
            }
          ]
        },
        {
          "day": 2,
          "date": "5/25",
          "label": "바이런베이 풀데이 (일출+서핑+마을)",
          "day_km": 18,
          "stops": [
            {
              "name": "바이런베이",
              "lng": 153.615,
              "lat": -28.647,
              "type": "start",
              "distance_km": 0
            },
            {
              "name": "케이프 바이런 (바이런베이 등대)",
              "lng": 153.6361451,
              "lat": -28.6383938,
              "type": "attraction",
              "distance_km": 4,
              "grade": "S"
            },
            {
              "name": "케이프 바이런 워킹 트랙",
              "lng": 153.6360211,
              "lat": -28.6349677,
              "type": "attraction",
              "distance_km": 2,
              "grade": "A"
            },
            {
              "name": "바이런베이 타운 (서핑)",
              "lng": 153.615,
              "lat": -28.647,
              "type": "waypoint",
              "distance_km": 4
            },
            {
              "name": "Wategos Beach",
              "lng": 153.637,
              "lat": -28.635,
              "type": "waypoint",
              "distance_km": 4
            },
            {
              "name": "바이런베이",
              "lng": 153.615,
              "lat": -28.647,
              "type": "stay",
              "distance_km": 4
            }
          ]
        },
        {
          "day": 3,
          "date": "5/26",
          "label": "바이런→콥스→도리고→벨링겐",
          "day_km": 358,
          "stops": [
            {
              "name": "바이런베이",
              "lng": 153.615,
              "lat": -28.647,
              "type": "start",
              "distance_km": 0
            },
            {
              "name": "룩앳미나우 헤드랜드",
              "lng": 153.1866875,
              "lat": -30.1756875,
              "type": "attraction",
              "distance_km": 216,
              "grade": "S"
            },
            {
              "name": "머튼버드 아일랜드",
              "lng": 153.1515706,
              "lat": -30.3053949,
              "type": "attraction",
              "distance_km": 21,
              "grade": "A"
            },
            {
              "name": "포레스트 스카이 피어",
              "lng": 153.1095289,
              "lat": -30.2664777,
              "type": "attraction",
              "distance_km": 12,
              "grade": "A"
            },
            {
              "name": "크리스탈 샤워 폭포",
              "lng": 152.7297825,
              "lat": -30.3805276,
              "type": "attraction",
              "distance_km": 70,
              "grade": "A"
            },
            {
              "name": "댕거 폭포",
              "lng": 152.7143427,
              "lat": -30.3233022,
              "type": "attraction",
              "distance_km": 7,
              "grade": "A"
            },
            {
              "name": "벨링겐",
              "lng": 152.9,
              "lat": -30.45,
              "type": "stay",
              "distance_km": 32
            }
          ]
        },
        {
          "day": 4,
          "date": "5/27",
          "label": "벨링겐→포맥→포트스테판스",
          "day_km": 430,
          "stops": [
            {
              "name": "벨링겐",
              "lng": 152.9,
              "lat": -30.45,
              "type": "start",
              "distance_km": 0
            },
            {
              "name": "태킹 포인트 등대",
              "lng": 152.9373573,
              "lat": -31.4755149,
              "type": "attraction",
              "distance_km": 151,
              "grade": "A"
            },
            {
              "name": "스톡턴 사막 (샌드보딩)",
              "lng": 152.083,
              "lat": -32.783,
              "type": "attraction",
              "distance_km": 249
            },
            {
              "name": "토마리 헤드",
              "lng": 152.1872376,
              "lat": -32.7168327,
              "type": "attraction",
              "distance_km": 16,
              "grade": "A"
            },
            {
              "name": "넬슨베이",
              "lng": 152.067,
              "lat": -32.717,
              "type": "stay",
              "distance_km": 14
            }
          ]
        },
        {
          "day": 5,
          "date": "5/28",
          "label": "뉴캐슬→블루마운틴 (석양 골든아워)",
          "day_km": 335,
          "stops": [
            {
              "name": "넬슨베이",
              "lng": 152.067,
              "lat": -32.717,
              "type": "start",
              "distance_km": 0
            },
            {
              "name": "뉴캐슬 메모리얼 워크",
              "lng": 151.777038,
              "lat": -32.9367076,
              "type": "attraction",
              "distance_km": 58,
              "grade": "S"
            },
            {
              "name": "보기 홀",
              "lng": 151.7816528,
              "lat": -32.9351306,
              "type": "attraction",
              "distance_km": 1,
              "grade": "B"
            },
            {
              "name": "고벳츠 리프 전망대",
              "lng": 150.3115081,
              "lat": -33.628006,
              "type": "attraction",
              "distance_km": 246,
              "grade": "A"
            },
            {
              "name": "서블라임 포인트 전망대",
              "lng": 150.3431177,
              "lat": -33.7293913,
              "type": "attraction",
              "distance_km": 19,
              "grade": "A"
            },
            {
              "name": "카툼바 폭포",
              "lng": 150.30431,
              "lat": -33.7276912,
              "type": "attraction",
              "distance_km": 8,
              "grade": "S"
            },
            {
              "name": "에코 포인트 (쓰리 시스터스)",
              "lng": 150.3120446,
              "lat": -33.7325833,
              "type": "attraction",
              "distance_km": 1,
              "grade": "A"
            },
            {
              "name": "블루마운틴 (카툼바)",
              "lng": 150.312,
              "lat": -33.714,
              "type": "stay",
              "distance_km": 2
            }
          ]
        },
        {
          "day": 6,
          "date": "5/29",
          "label": "블루마운틴→그랜드퍼시픽→시드니공항",
          "day_km": 340,
          "stops": [
            {
              "name": "카툼바",
              "lng": 150.312,
              "lat": -33.714,
              "type": "start",
              "distance_km": 0
            },
            {
              "name": "그랜드 캐니언 워킹 트랙",
              "lng": 150.3214159,
              "lat": -33.649376,
              "type": "attraction",
              "distance_km": 13,
              "grade": "S"
            },
            {
              "name": "스탠웰 탑스 전망대",
              "lng": 150.9974825,
              "lat": -34.2237322,
              "type": "attraction",
              "distance_km": 145,
              "grade": "A"
            },
            {
              "name": "그랜드 퍼시픽 드라이브",
              "lng": 150.9961037,
              "lat": -34.224236,
              "type": "attraction",
              "distance_km": 0,
              "grade": "S"
            },
            {
              "name": "시 클리프 브릿지",
              "lng": 150.9733285,
              "lat": -34.2544902,
              "type": "attraction",
              "distance_km": 6,
              "grade": "A"
            },
            {
              "name": "봄보 헤드랜드 채석장",
              "lng": 150.8624175,
              "lat": -34.6514592,
              "type": "attraction",
              "distance_km": 59,
              "grade": "A"
            },
            {
              "name": "키아마 블로우홀",
              "lng": 150.8658668,
              "lat": -34.6713444,
              "type": "attraction",
              "distance_km": 4,
              "grade": "A"
            },
            {
              "name": "시드니공항 (반납)",
              "lng": 151.1772,
              "lat": -33.9461,
              "type": "end",
              "distance_km": 113
            }
          ]
        }
      ]
    },
    "9": {
      "name": "9조: GC포함 밸런스 (4조 완성형)",
      "color": "#c0392b",
      "total_km": 2379,
      "score": 59.5,
      "days": [
        {
          "day": 1,
          "date": "5/24",
          "label": "시드니→골드코스트 (882km)",
          "day_km": 862,
          "stops": [
            {
              "name": "시드니공항",
              "lng": 151.1772,
              "lat": -33.9461,
              "type": "start",
              "distance_km": 0
            },
            {
              "name": "헤더브레이",
              "lng": 151.7333,
              "lat": -32.7667,
              "type": "waypoint",
              "distance_km": 176
            },
            {
              "name": "포트맥쿼리",
              "lng": 152.9089,
              "lat": -31.4333,
              "type": "waypoint",
              "distance_km": 220
            },
            {
              "name": "콥스하버",
              "lng": 153.114,
              "lat": -30.296,
              "type": "waypoint",
              "distance_km": 154
            },
            {
              "name": "골드코스트",
              "lng": 153.43,
              "lat": -28.0023,
              "type": "stay",
              "distance_km": 312
            }
          ]
        },
        {
          "day": 2,
          "date": "5/25",
          "label": "GC→바이런→콥스하버",
          "day_km": 338,
          "stops": [
            {
              "name": "골드코스트",
              "lng": 153.43,
              "lat": -28.0023,
              "type": "start",
              "distance_km": 0
            },
            {
              "name": "버레이 헤드 국립공원",
              "lng": 153.4591743,
              "lat": -28.0918206,
              "type": "attraction",
              "distance_km": 12,
              "grade": "A"
            },
            {
              "name": "케이프 바이런 (바이런베이 등대)",
              "lng": 153.6361451,
              "lat": -28.6383938,
              "type": "attraction",
              "distance_km": 82,
              "grade": "S"
            },
            {
              "name": "케이프 바이런 워킹 트랙",
              "lng": 153.6360211,
              "lat": -28.6349677,
              "type": "attraction",
              "distance_km": 2,
              "grade": "A"
            },
            {
              "name": "바이런베이 타운",
              "lng": 153.615,
              "lat": -28.647,
              "type": "waypoint",
              "distance_km": 4
            },
            {
              "name": "머튼버드 아일랜드",
              "lng": 153.1515706,
              "lat": -30.3053949,
              "type": "attraction",
              "distance_km": 234,
              "grade": "A"
            },
            {
              "name": "콥스하버",
              "lng": 153.114,
              "lat": -30.296,
              "type": "stay",
              "distance_km": 4
            }
          ]
        },
        {
          "day": 3,
          "date": "5/26",
          "label": "콥스→도리고→포맥→포트스테판스",
          "day_km": 440,
          "stops": [
            {
              "name": "콥스하버",
              "lng": 153.114,
              "lat": -30.296,
              "type": "start",
              "distance_km": 0
            },
            {
              "name": "룩앳미나우 헤드랜드",
              "lng": 153.1866875,
              "lat": -30.1756875,
              "type": "attraction",
              "distance_km": 20,
              "grade": "S"
            },
            {
              "name": "벨링겐 마을",
              "lng": 152.9,
              "lat": -30.45,
              "type": "waypoint",
              "distance_km": 56
            },
            {
              "name": "포레스트 스카이 피어",
              "lng": 153.1095289,
              "lat": -30.2664777,
              "type": "attraction",
              "distance_km": 46,
              "grade": "A"
            },
            {
              "name": "크리스탈 샤워 폭포",
              "lng": 152.7297825,
              "lat": -30.3805276,
              "type": "attraction",
              "distance_km": 70,
              "grade": "A"
            },
            {
              "name": "댕거 폭포",
              "lng": 152.7143427,
              "lat": -30.3233022,
              "type": "attraction",
              "distance_km": 7,
              "grade": "A"
            },
            {
              "name": "넬슨베이",
              "lng": 152.067,
              "lat": -32.717,
              "type": "stay",
              "distance_km": 241
            }
          ]
        },
        {
          "day": 4,
          "date": "5/27",
          "label": "포트스테판스 풀데이",
          "day_km": 50,
          "stops": [
            {
              "name": "넬슨베이",
              "lng": 152.067,
              "lat": -32.717,
              "type": "start",
              "distance_km": 0
            },
            {
              "name": "스톡턴 사막 (샌드보딩)",
              "lng": 152.083,
              "lat": -32.783,
              "type": "attraction",
              "distance_km": 15
            },
            {
              "name": "토마리 헤드",
              "lng": 152.1872376,
              "lat": -32.7168327,
              "type": "attraction",
              "distance_km": 16,
              "grade": "A"
            },
            {
              "name": "보기 홀",
              "lng": 151.7816528,
              "lat": -32.9351306,
              "type": "attraction",
              "distance_km": 9,
              "grade": "B"
            },
            {
              "name": "넬슨베이",
              "lng": 152.067,
              "lat": -32.717,
              "type": "stay",
              "distance_km": 10
            }
          ]
        },
        {
          "day": 5,
          "date": "5/28",
          "label": "뉴캐슬→블루마운틴 (고벳츠 석양)",
          "day_km": 328,
          "stops": [
            {
              "name": "넬슨베이",
              "lng": 152.067,
              "lat": -32.717,
              "type": "start",
              "distance_km": 0
            },
            {
              "name": "뉴캐슬 메모리얼 워크",
              "lng": 151.777038,
              "lat": -32.9367076,
              "type": "attraction",
              "distance_km": 58,
              "grade": "S"
            },
            {
              "name": "서블라임 포인트 전망대",
              "lng": 150.3431177,
              "lat": -33.7293913,
              "type": "attraction",
              "distance_km": 231,
              "grade": "A"
            },
            {
              "name": "카툼바 폭포",
              "lng": 150.30431,
              "lat": -33.7276912,
              "type": "attraction",
              "distance_km": 8,
              "grade": "S"
            },
            {
              "name": "에코 포인트 (쓰리 시스터스)",
              "lng": 150.3120446,
              "lat": -33.7325833,
              "type": "attraction",
              "distance_km": 1,
              "grade": "A"
            },
            {
              "name": "고벳츠 리프 전망대",
              "lng": 150.3115081,
              "lat": -33.628006,
              "type": "attraction",
              "distance_km": 16,
              "grade": "A"
            },
            {
              "name": "블루마운틴 (카툼바)",
              "lng": 150.312,
              "lat": -33.714,
              "type": "stay",
              "distance_km": 14
            }
          ]
        },
        {
          "day": 6,
          "date": "5/29",
          "label": "블루마운틴→그랜드퍼시픽→시드니공항",
          "day_km": 361,
          "stops": [
            {
              "name": "카툼바",
              "lng": 150.312,
              "lat": -33.714,
              "type": "start",
              "distance_km": 0
            },
            {
              "name": "그랜드 캐니언 워킹 트랙",
              "lng": 150.3214159,
              "lat": -33.649376,
              "type": "attraction",
              "distance_km": 13,
              "grade": "S"
            },
            {
              "name": "봄보 헤드랜드 채석장",
              "lng": 150.8624175,
              "lat": -34.6514592,
              "type": "attraction",
              "distance_km": 207,
              "grade": "A"
            },
            {
              "name": "키아마 블로우홀",
              "lng": 150.8658668,
              "lat": -34.6713444,
              "type": "attraction",
              "distance_km": 4,
              "grade": "A"
            },
            {
              "name": "그랜드 퍼시픽 드라이브",
              "lng": 150.9961037,
              "lat": -34.224236,
              "type": "attraction",
              "distance_km": 75,
              "grade": "S"
            },
            {
              "name": "시 클리프 브릿지",
              "lng": 150.9733285,
              "lat": -34.2544902,
              "type": "attraction",
              "distance_km": 6,
              "grade": "A"
            },
            {
              "name": "스탠웰 탑스 전망대",
              "lng": 150.9974825,
              "lat": -34.2237322,
              "type": "attraction",
              "distance_km": 8,
              "grade": "A"
            },
            {
              "name": "시드니공항 (반납)",
              "lng": 151.1772,
              "lat": -33.9461,
              "type": "end",
              "distance_km": 48
            }
          ]
        }
      ]
    }
  }
}
